{
  "a35c008a-3bab-11ec-997c-784f43691740": {
    "name": "Mogadishu",
    "lat": 2.066672494,
    "lng": 45.36671678
  },
  "a5763200-3bab-11ec-997c-784f43691740": {
    "name": "Lusaka",
    "lat": -15.41663612,
    "lng": 28.2833129
  },
  "a44ee7be-3bab-11ec-997c-784f43691740": {
    "name": "Tunis",
    "lat": 36.80277457,
    "lng": 10.17963704
  },
  "9da3cc2c-3bab-11ec-997c-784f43691740": {
    "name": "Algiers",
    "lat": 36.753889,
    "lng": 3.058889
  },
  "a3900902-3bab-11ec-997c-784f43691740": {
    "name": "Juba",
    "lat": 4.829953617,
    "lng": 31.58003969
  },
  "vsZr8yC1": {
    "name": "Ciudad de la Paz",
    "lat": 1.58888889,
    "lng": 10.8225
  },
  "a2a53b3e-3bab-11ec-997c-784f43691740": {
    "name": "Brazzaville",
    "lat": -3.992667770569819,
    "lng": 15.076073222866103
  },
  "a161b108-3bab-11ec-997c-784f43691740": {
    "name": "Nairobi",
    "lat": -1.283327342,
    "lng": 36.81668169
  },
  "a19c68b6-3bab-11ec-997c-784f43691740": {
    "name": "Bamako",
    "lat": 12.64996328,
    "lng": -8.000028232
  },
  "a49866e6-3bab-11ec-997c-784f43691740": {
    "name": "Dodoma",
    "lat": -6.173023076,
    "lng": 35.74192794
  },
  "a09df466-3bab-11ec-997c-784f43691740": {
    "name": "Bissau",
    "lat": 11.86502114,
    "lng": -15.59835256
  },
  "9e6f82cc-3bab-11ec-997c-784f43691740": {
    "name": "Gaborone",
    "lat": -24.64633659,
    "lng": 25.91191269
  },
  "a015a3cc-3bab-11ec-997c-784f43691740": {
    "name": "Djibouti",
    "lat": 11.59499605,
    "lng": 43.14800324
  },
  "9f3cdc54-3bab-11ec-997c-784f43691740": {
    "name": "Bangui",
    "lat": 4.366590105,
    "lng": 18.55828094
  },
  "84d5d1d0-5286-11ec-a35d-69ef77974be3": {
    "name": "São Tomé",
    "lat": 0.336111,
    "lng": 6.730556
  },
  "a037d708-3bab-11ec-997c-784f43691740": {
    "name": "Asmara",
    "lat": 15.33332583,
    "lng": 38.93330235
  },
  "a33a223a-3bab-11ec-997c-784f43691740": {
    "name": "Kigali",
    "lat": -1.953592659,
    "lng": 30.06052862
  },
  "a57af9c0-3bab-11ec-997c-784f43691740": {
    "name": "Harare",
    "lat": -17.81774045,
    "lng": 31.04469547
  },
  "a07f53d0-3bab-11ec-997c-784f43691740": {
    "name": "Accra",
    "lat": 5.550026352,
    "lng": -0.216723683
  },
  "a174b0b4-3bab-11ec-997c-784f43691740": {
    "name": "Maseru",
    "lat": -29.31666399,
    "lng": 27.48327465
  },
  "a1aaa2aa-3bab-11ec-997c-784f43691740": {
    "name": "Port Louis",
    "lat": -20.164444,
    "lng": 57.504167
  },
  "a1f0c0aa-3bab-11ec-997c-784f43691740": {
    "name": "Maputo",
    "lat": -25.95528183,
    "lng": 32.58918064
  },
  "a22a31be-3bab-11ec-997c-784f43691740": {
    "name": "Abuja",
    "lat": 9.083272434,
    "lng": 7.533240902
  },
  "a097e242-3bab-11ec-997c-784f43691740": {
    "name": "Conakry",
    "lat": 9.531511234,
    "lng": -13.68018929
  },
  "a190ff1c-3bab-11ec-997c-784f43691740": {
    "name": "Lilongwe",
    "lat": -13.98326124,
    "lng": 33.78328135
  },
  "a34e1b14-3bab-11ec-997c-784f43691740": {
    "name": "Freetown",
    "lat": 8.470008538,
    "lng": -13.23414744
  },
  "4794ec0e-9492-11ec-8c03-8fa79ee10251": {
    "name": "Cairo",
    "lat": 30.0499354,
    "lng": 31.24993649
  },
  "a1eb1880-3bab-11ec-997c-784f43691740": {
    "name": "Rabat",
    "lat": 34.02532202,
    "lng": -6.836093972
  },
  "a34a3986-3bab-11ec-997c-784f43691740": {
    "name": "Dakar",
    "lat": 14.71580743,
    "lng": -17.47312138
  },
  "a227a548-3bab-11ec-997c-784f43691740": {
    "name": "Niamey",
    "lat": 13.51666309,
    "lng": 2.116633151
  },
  "a469b562-3bab-11ec-997c-784f43691740": {
    "name": "Kampala",
    "lat": 0.3166639924,
    "lng": 32.58329488
  },
  "49414368-9492-11ec-8c03-8fa79ee10251": {
    "name": "Kinshasa",
    "lat": -4.702686508134714,
    "lng": 15.62872643036915
  },
  "a3ee25d2-3bab-11ec-997c-784f43691740": {
    "name": "Khartoum",
    "lat": 15.58804381,
    "lng": 32.53415964
  },
  "9eea674e-3bab-11ec-997c-784f43691740": {
    "name": "Ouagadougou",
    "lat": 12.37026509,
    "lng": -1.52471463
  },
  "a402a8d6-3bab-11ec-997c-784f43691740": {
    "name": "Mbabane",
    "lat": -26.3166344,
    "lng": 31.13329985
  },
  "9fe7ed38-3bab-11ec-997c-784f43691740": {
    "name": "Moroni",
    "lat": -11.699,
    "lng": 43.256
  },
  "a0639e4c-3bab-11ec-997c-784f43691740": {
    "name": "Libreville",
    "lat": 0.3852141045,
    "lng": 9.457955288
  },
  "9efe8580-3bab-11ec-997c-784f43691740": {
    "name": "Yaoundé",
    "lat": 3.866666695,
    "lng": 11.51662264
  },
  "a12d0084-3bab-11ec-997c-784f43691740": {
    "name": "Yamoussoukro",
    "lat": 6.818374128,
    "lng": -5.275492804
  },
  "a177eec8-3bab-11ec-997c-784f43691740": {
    "name": "Monrovia",
    "lat": 6.310541872,
    "lng": -10.80474506
  },
  "9f46a158-3bab-11ec-997c-784f43691740": {
    "name": "N'Djamena",
    "lat": 12.11304847,
    "lng": 15.04913938
  },
  "9db5e75e-3bab-11ec-997c-784f43691740": {
    "name": "Luanda",
    "lat": -8.838279481,
    "lng": 13.23436963
  },
  "9eefc84c-3bab-11ec-997c-784f43691740": {
    "name": "Gitega",
    "lat": -3.425970774,
    "lng": 29.84362452
  },
  "a06736b0-3bab-11ec-997c-784f43691740": {
    "name": "Banjul",
    "lat": 13.45298607,
    "lng": -16.57747979
  },
  "a03be082-3bab-11ec-997c-784f43691740": {
    "name": "Addis Ababa",
    "lat": 9.033273476,
    "lng": 38.70000776
  },
  "a2056bea-3bab-11ec-997c-784f43691740": {
    "name": "Windhoek",
    "lat": -22.57000863,
    "lng": 17.08352903
  },
  "a445f910-3bab-11ec-997c-784f43691740": {
    "name": "Lomé",
    "lat": 6.131940919,
    "lng": 1.222743848
  },
  "a34d3cbc-3bab-11ec-997c-784f43691740": {
    "name": "Victoria",
    "lat": -4.6167,
    "lng": 55.45
  },
  "9e514046-3bab-11ec-997c-784f43691740": {
    "name": "Porto-Novo",
    "lat": 6.483304868,
    "lng": 2.616599001
  },
  "9f3bb342-3bab-11ec-997c-784f43691740": {
    "name": "Praia",
    "lat": 14.918,
    "lng": -23.509
  },
  "a370169c-3bab-11ec-997c-784f43691740": {
    "name": "Pretoria",
    "lat": -25.70692841,
    "lng": 28.22942774
  },
  "a1803664-3bab-11ec-997c-784f43691740": {
    "name": "Tripoli",
    "lat": 32.89248968,
    "lng": 13.17999911
  },
  "a189636a-3bab-11ec-997c-784f43691740": {
    "name": "Antananarivo",
    "lat": -18.91661606,
    "lng": 47.51663888
  },
  "a1a8013a-3bab-11ec-997c-784f43691740": {
    "name": "Nouakchott",
    "lat": 18.0864234,
    "lng": -15.97530061
  },
  "a42f0ff2-3bab-11ec-997c-784f43691740": {
    "name": "Taipei",
    "lat": 25.06666712,
    "lng": 121.5166539
  },
  "9ef4867a-3bab-11ec-997c-784f43691740": {
    "name": "Phnom Penh",
    "lat": 11.54998994,
    "lng": 104.9166354
  },
  "a4521a24-3bab-11ec-997c-784f43691740": {
    "name": "Ankara",
    "lat": 39.92726452,
    "lng": 32.86440161
  },
  "a42ff084-3bab-11ec-997c-784f43691740": {
    "name": "Dushanbe",
    "lat": 38.56004835,
    "lng": 68.77395303
  },
  "a3894e46-3bab-11ec-997c-784f43691740": {
    "name": "Seoul",
    "lat": 37.56632988,
    "lng": 126.9997372
  },
  "a570d116-3bab-11ec-997c-784f43691740": {
    "name": "Sanaa",
    "lat": 15.3547397,
    "lng": 44.20660029
  },
  "a20951a6-3bab-11ec-997c-784f43691740": {
    "name": "Kathmandu",
    "lat": 27.71667565,
    "lng": 85.31669773
  },
  "9e393500-3bab-11ec-997c-784f43691740": {
    "name": "Manama",
    "lat": 26.225,
    "lng": 50.5775
  },
  "a47b7392-3bab-11ec-997c-784f43691740": {
    "name": "Abu Dhabi",
    "lat": 24.46668255,
    "lng": 54.36661083
  },
  "9dea3108-3bab-11ec-997c-784f43691740": {
    "name": "Yerevan",
    "lat": 40.18112721,
    "lng": 44.51355272
  },
  "a5520b14-3bab-11ec-997c-784f43691740": {
    "name": "Tashkent",
    "lat": 41.31170014,
    "lng": 69.29491316
  },
  "c5fc01f4-a6b2-11ec-8571-a860b6166432": {
    "name": "Kabul",
    "lat": 34.51667621,
    "lng": 69.18325847
  },
  "a14a1a52-3bab-11ec-997c-784f43691740": {
    "name": "Astana",
    "lat": 51.18111277,
    "lng": 71.42778208
  },
  "9e52459a-3bab-11ec-997c-784f43691740": {
    "name": "Thimphu",
    "lat": 27.47299995,
    "lng": 89.6390301
  },
  "a2902ab4-3bab-11ec-997c-784f43691740": {
    "name": "Manila",
    "lat": 14.60414322,
    "lng": 120.982221
  },
  "a25d751a-3bab-11ec-997c-784f43691740": {
    "name": "Jerusalem",
    "lat": 31.783333,
    "lng": 35.216667
  },
  "a463571c-3bab-11ec-997c-784f43691740": {
    "name": "Ashgabat",
    "lat": 37.95000401,
    "lng": 58.38329932
  },
  "a0c1e18c-3bab-11ec-997c-784f43691740": {
    "name": "Delhi",
    "lat": 28.67001547,
    "lng": 77.22999278
  },
  "a5651768-3bab-11ec-997c-784f43691740": {
    "name": "Hanoi",
    "lat": 21.03329797,
    "lng": 105.8499761
  },
  "a19b802c-3bab-11ec-997c-784f43691740": {
    "name": "Malé",
    "lat": 4.175278,
    "lng": 73.508889
  },
  "a42b62d0-3bab-11ec-997c-784f43691740": {
    "name": "Damascus",
    "lat": 33.50001822,
    "lng": 36.29999597
  },
  "a001fc6a-a61c-11ec-8d1d-7998aac3e330": {
    "name": "Muscat",
    "lat": 23.61333843,
    "lng": 58.59329611
  },
  "a10b43c2-3bab-11ec-997c-784f43691740": {
    "name": "Baghdad",
    "lat": 33.33867096,
    "lng": 44.39386289
  },
  "a0ea3592-3bab-11ec-997c-784f43691740": {
    "name": "Jakarta",
    "lat": -6.174405416,
    "lng": 106.8294382
  },
  "9edeb2dc-3bab-11ec-997c-784f43691740": {
    "name": "Bandar Seri Begawan",
    "lat": 4.883320498,
    "lng": 114.933304
  },
  "a01eded8-3bab-11ec-997c-784f43691740": {
    "name": "Dili",
    "lat": -8.559389006,
    "lng": 125.5794623
  },
  "a1689888-3bab-11ec-997c-784f43691740": {
    "name": "Bishkek",
    "lat": 42.87309948,
    "lng": 74.58527962
  },
  "9e3c97cc-3bab-11ec-997c-784f43691740": {
    "name": "Dhaka",
    "lat": 23.72305238,
    "lng": 90.40837728
  },
  "a172521a-3bab-11ec-997c-784f43691740": {
    "name": "Beirut",
    "lat": 33.87194339,
    "lng": 35.50968442
  },
  "a23d7a08-3bab-11ec-997c-784f43691740": {
    "name": "Pyongyang",
    "lat": 39.01943355,
    "lng": 125.7546734
  },
  "a3491664-3bab-11ec-997c-784f43691740": {
    "name": "Riyadh",
    "lat": 24.6408211,
    "lng": 46.77274107
  },
  "a166fb40-3bab-11ec-997c-784f43691740": {
    "name": "Kuwait City",
    "lat": 29.369713,
    "lng": 47.97831757
  },
  "d4c9ffd8-527a-11ec-83ef-2f69b13edb9b": {
    "name": "Tokyo",
    "lat": 35.68501506,
    "lng": 139.7513374
  },
  "a2a4cbf4-3bab-11ec-997c-784f43691740": {
    "name": "Doha",
    "lat": 25.2865425,
    "lng": 51.53296477
  },
  "9e345094-3bab-11ec-997c-784f43691740": {
    "name": "Baku",
    "lat": 40.3952974,
    "lng": 49.86223544
  },
  "a1fb5970-3bab-11ec-997c-784f43691740": {
    "name": "Naypyidaw",
    "lat": 19.76654486,
    "lng": 96.11861429
  },
  "a2f56c62-3bab-11ec-997c-784f43691740": {
    "name": "Moscow",
    "lat": 55.75219225,
    "lng": 37.61545081
  },
  "a144c980-3bab-11ec-997c-784f43691740": {
    "name": "Amman",
    "lat": 31.95003802,
    "lng": 35.93331889
  },
  "a2533ac8-3bab-11ec-997c-784f43691740": {
    "name": "Islamabad",
    "lat": 33.69997306,
    "lng": 73.16664993
  },
  "a4342a50-3bab-11ec-997c-784f43691740": {
    "name": "Bangkok",
    "lat": 13.74998315,
    "lng": 100.5165915
  },
  "a1976758-3bab-11ec-997c-784f43691740": {
    "name": "Kuala Lumpur",
    "lat": 3.166656513,
    "lng": 101.6999839
  },
  "a34f5f42-3bab-11ec-997c-784f43691740": {
    "name": "Singapore",
    "lat": 1.283333,
    "lng": 103.833333
  },
  "a104f968-3bab-11ec-997c-784f43691740": {
    "name": "Tehran",
    "lat": 35.67194911,
    "lng": 51.4243495
  },
  "a1e360cc-3bab-11ec-997c-784f43691740": {
    "name": "Ulaanbaatar",
    "lat": 47.91669147,
    "lng": 106.9166136
  },
  "a1144896-3bab-11ec-997c-784f43691740": {
    "name": "Jerusalem",
    "lat": 31.77838999,
    "lng": 35.20662048
  },
  "a16eb7ae-3bab-11ec-997c-784f43691740": {
    "name": "Vientiane",
    "lat": 17.96667115,
    "lng": 102.5999228
  },
  "9f69f98c-3bab-11ec-997c-784f43691740": {
    "name": "Beijing",
    "lat": 39.92889484,
    "lng": 116.3882627
  },
  "a3d64d68-3bab-11ec-997c-784f43691740": {
    "name": "Colombo",
    "lat": 6.931930084,
    "lng": 79.85778266
  },
  "a1a3db8c-3bab-11ec-997c-784f43691740": {
    "name": "Valletta",
    "lat": 35.898333,
    "lng": 14.5125
  },
  "9e49f200-3bab-11ec-997c-784f43691740": {
    "name": "Brussels",
    "lat": 50.83335459,
    "lng": 4.333288202
  },
  "9e6d7cac-3bab-11ec-997c-784f43691740": {
    "name": "Sarajevo",
    "lat": 43.85005305,
    "lng": 18.38296161
  },
  "a0033d0e-3bab-11ec-997c-784f43691740": {
    "name": "Nicosia",
    "lat": 35.1725,
    "lng": 33.365
  },
  "a2475e74-3bab-11ec-997c-784f43691740": {
    "name": "Oslo",
    "lat": 59.91669181,
    "lng": 10.74990656
  },
  "a1dce940-3bab-11ec-997c-784f43691740": {
    "name": "Monaco",
    "lat": 43.733333,
    "lng": 7.416667
  },
  "a185a860-3bab-11ec-997c-784f43691740": {
    "name": "Luxembourg City",
    "lat": 49.61170224,
    "lng": 6.129977891
  },
  "a3536402-3bab-11ec-997c-784f43691740": {
    "name": "Ljubljana",
    "lat": 46.05528732,
    "lng": 14.51495441
  },
  "a418b69e-3bab-11ec-997c-784f43691740": {
    "name": "Stockholm",
    "lat": 59.35077286,
    "lng": 18.09734261
  },
  "a2ac2930-3bab-11ec-997c-784f43691740": {
    "name": "Bucharest",
    "lat": 44.43339873,
    "lng": 26.09994715
  },
  "9ee37c5e-3bab-11ec-997c-784f43691740": {
    "name": "Sofia",
    "lat": 42.68333777,
    "lng": 23.31663228
  },
  "a2a0fbbe-3bab-11ec-997c-784f43691740": {
    "name": "Lisbon",
    "lat": 38.72271539,
    "lng": -9.144807164
  },
  "a0736746-3bab-11ec-997c-784f43691740": {
    "name": "Berlin",
    "lat": 52.52180273,
    "lng": 13.40155003
  },
  "a046152a-3bab-11ec-997c-784f43691740": {
    "name": "Helsinki",
    "lat": 60.17559189,
    "lng": 24.93403669
  },
  "a3c467f6-3bab-11ec-997c-784f43691740": {
    "name": "Madrid",
    "lat": 40.40003872,
    "lng": -3.683308256
  },
  "8d3dcae0-3a51-11ed-bd58-858d2062bc31": {
    "name": "Rome",
    "lat": 41.89594716,
    "lng": 12.48326594
  },
  "7e9a877e-f61f-11ec-bf8e-ed47401ebff3": {
    "name": "San Marino",
    "lat": 43.9346,
    "lng": 12.4473
  },
  "a1824d96-3bab-11ec-997c-784f43691740": {
    "name": "Vaduz",
    "lat": 47.141,
    "lng": 9.521
  },
  "a183a556-3bab-11ec-997c-784f43691740": {
    "name": "Vilnius",
    "lat": 54.68341926,
    "lng": 25.31657417
  },
  "a0b2e5c4-3bab-11ec-997c-784f43691740": {
    "name": "Reykjavík",
    "lat": 64.15009479,
    "lng": -21.94983132
  },
  "a00904b4-3bab-11ec-997c-784f43691740": {
    "name": "Prague",
    "lat": 50.08337907,
    "lng": 14.46600463
  },
  "9e32fa14-3bab-11ec-997c-784f43691740": {
    "name": "Vienna",
    "lat": 48.20002522,
    "lng": 16.36662587
  },
  "a490759e-3bab-11ec-997c-784f43691740": {
    "name": "London",
    "lat": 51.50000484,
    "lng": -0.1164482408
  },
  "9da277e6-3bab-11ec-997c-784f43691740": {
    "name": "Tirana",
    "lat": 41.32752762,
    "lng": 19.81886669
  },
  "a1e509c2-3bab-11ec-997c-784f43691740": {
    "name": "Podgorica",
    "lat": 42.4660011,
    "lng": 19.26619997
  },
  "9e439752-3bab-11ec-997c-784f43691740": {
    "name": "Minsk",
    "lat": 53.89995155,
    "lng": 27.56659698
  },
  "a20d4ff4-3bab-11ec-997c-784f43691740": {
    "name": "Amsterdam",
    "lat": 52.34999569,
    "lng": 4.916591731
  },
  "a1db699e-3bab-11ec-997c-784f43691740": {
    "name": "Chișinău",
    "lat": 47.00502602,
    "lng": 28.85770245
  },
  "9db0212a-3bab-11ec-997c-784f43691740": {
    "name": "Andorra la Vella",
    "lat": 42.5,
    "lng": 1.5
  },
  "a29b4304-3bab-11ec-997c-784f43691740": {
    "name": "Warsaw",
    "lat": 52.24999286,
    "lng": 20.99991047
  },
  "a165935e-3bab-11ec-997c-784f43691740": {
    "name": "Pristina",
    "lat": 42.66673396,
    "lng": 21.16594704
  },
  "9feeb992-3bab-11ec-997c-784f43691740": {
    "name": "Zagreb",
    "lat": 45.79999993,
    "lng": 15.99997518
  },
  "a2a750d6-3bab-11ec-997c-784f43691740": {
    "name": "Belgrade",
    "lat": 44.81669567,
    "lng": 20.46664933
  },
  "a170f230-3bab-11ec-997c-784f43691740": {
    "name": "Riga",
    "lat": 56.95003024,
    "lng": 24.09994503
  },
  "a05c68d4-3bab-11ec-997c-784f43691740": {
    "name": "Paris",
    "lat": 48.86672267,
    "lng": 2.333264918
  },
  "a18731a8-3bab-11ec-997c-784f43691740": {
    "name": "Skopje",
    "lat": 42.00001415,
    "lng": 21.43343864
  },
  "a4201736-3bab-11ec-997c-784f43691740": {
    "name": "Bern",
    "lat": 46.91668377,
    "lng": 7.466923544
  },
  "a0acd472-3bab-11ec-997c-784f43691740": {
    "name": "Budapest",
    "lat": 47.50002972,
    "lng": 19.08324851
  },
  "a47408dc-3bab-11ec-997c-784f43691740": {
    "name": "Kiev",
    "lat": 50.43335883,
    "lng": 30.51658759
  },
  "a3510266-3bab-11ec-997c-784f43691740": {
    "name": "Bratislava",
    "lat": 48.1500005,
    "lng": 17.11698052
  },
  "a03a2aa8-3bab-11ec-997c-784f43691740": {
    "name": "Tallinn",
    "lat": 59.43386534,
    "lng": 24.72802645
  },
  "a084437c-3bab-11ec-997c-784f43691740": {
    "name": "Athens",
    "lat": 37.98332755,
    "lng": 23.73329249
  },
  "a1103a3a-3bab-11ec-997c-784f43691740": {
    "name": "Dublin",
    "lat": 53.33306917,
    "lng": -6.248887675
  },
  "a0694b30-3bab-11ec-997c-784f43691740": {
    "name": "Tbilisi",
    "lat": 41.72501351,
    "lng": 44.79083495
  },
  "a012a758-3bab-11ec-997c-784f43691740": {
    "name": "Copenhagen",
    "lat": 55.67861138,
    "lng": 12.56345217
  },
  "a41c96d8-3bab-11ec-997c-784f43691740": {
    "name": "Matterhorn",
    "lat": 45.97638889,
    "lng": 7.65861111
  },
  "a117d89e-3bab-11ec-997c-784f43691740": {
    "name": "Leaning Tower of Pisa",
    "lat": 43.723056,
    "lng": 10.396389
  },
  "74a23576-a6b7-11ec-8571-a860b6166432": {
    "name": "Sagrada Família",
    "lat": 41.40361111,
    "lng": 2.17444444
  },
  "a06ac564-3bab-11ec-997c-784f43691740": {
    "name": "Brandenburg Gate",
    "lat": 52.51627222,
    "lng": 13.37772222
  },
  "ad70c932-56c9-11ec-8661-838d89a7781f": {
    "name": "Stonehenge",
    "lat": 51.17888889,
    "lng": -1.82611111
  },
  "1adc1a78-52a4-11ec-a49f-bbee89b30a15": {
    "name": "Acropolis of Athens",
    "lat": 37.97083333,
    "lng": 23.72611111
  },
  "dc07ef16-56cc-11ec-8661-838d89a7781f": {
    "name": "Eiffel Tower",
    "lat": 48.85822222,
    "lng": 2.2945
  },
  "a3042fc4-9487-11ec-8c03-8fa79ee10251": {
    "name": "The Little Mermaid",
    "lat": 55.692861,
    "lng": 12.599278
  },
  "9d09d7e6-5b6f-11ec-9fa0-558ef698b0b5": {
    "name": "Bridgetown",
    "lat": 13.0975,
    "lng": -59.616667
  },
  "a261b5a8-3bab-11ec-997c-784f43691740": {
    "name": "Panama City",
    "lat": 8.96799955,
    "lng": -79.53304556
  },
  "a4451388-3bab-11ec-997c-784f43691740": {
    "name": "Nassau",
    "lat": 25.06668059,
    "lng": -77.33334526
  },
  "a091fa62-3bab-11ec-997c-784f43691740": {
    "name": "Guatemala City",
    "lat": 14.62110751,
    "lng": -90.52693551
  },
  "a0a60476-3bab-11ec-997c-784f43691740": {
    "name": "Port-au-Prince",
    "lat": 18.54100149,
    "lng": -72.33604218
  },
  "a03438dc-3bab-11ec-997c-784f43691740": {
    "name": "San Salvador",
    "lat": 13.70999103,
    "lng": -89.20304167
  },
  "a33b9e3a-3bab-11ec-997c-784f43691740": {
    "name": "Basseterre",
    "lat": 17.3,
    "lng": -62.733333
  },
  "a08ebe56-3bab-11ec-997c-784f43691740": {
    "name": "St. George's",
    "lat": 12.05,
    "lng": -61.75
  },
  "a0a9c9a8-3bab-11ec-997c-784f43691740": {
    "name": "Tegucigalpa",
    "lat": 14.10204239,
    "lng": -87.21757849
  },
  "a016d5e4-3bab-11ec-997c-784f43691740": {
    "name": "Roseau",
    "lat": 15.301389,
    "lng": -61.388333
  },
  "a33e01a2-3bab-11ec-997c-784f43691740": {
    "name": "Kingstown",
    "lat": 13.157778,
    "lng": -61.225
  },
  "a01e8302-3bab-11ec-997c-784f43691740": {
    "name": "Santo Domingo",
    "lat": 18.47007659,
    "lng": -69.90014019
  },
  "9febc570-3bab-11ec-997c-784f43691740": {
    "name": "San José",
    "lat": 9.934999558,
    "lng": -84.08406191
  },
  "9e4d4770-3bab-11ec-997c-784f43691740": {
    "name": "Belmopan",
    "lat": 17.25200231,
    "lng": -88.76707941
  },
  "9ff2c910-3bab-11ec-997c-784f43691740": {
    "name": "Havana",
    "lat": 23.13195433,
    "lng": -82.36417613
  },
  "a53e458e-3bab-11ec-997c-784f43691740": {
    "name": "Washington, D.C.",
    "lat": 38.89954574,
    "lng": -77.00943796
  },
  "a222938c-3bab-11ec-997c-784f43691740": {
    "name": "Managua",
    "lat": 12.15301921,
    "lng": -86.26849824
  },
  "dacc8a5a-9491-11ec-8c03-8fa79ee10251": {
    "name": "Mexico City",
    "lat": 19.44244243,
    "lng": -99.13093794
  },
  "a44935ee-3bab-11ec-997c-784f43691740": {
    "name": "Port of Spain",
    "lat": 10.65192249,
    "lng": -61.51703491
  },
  "a33d18d2-3bab-11ec-997c-784f43691740": {
    "name": "Castries",
    "lat": 14.016667,
    "lng": -60.983333
  },
  "bc0a3328-a61c-11ec-8d1d-7998aac3e330": {
    "name": "Kingston",
    "lat": 17.9770689,
    "lng": -76.76746415
  },
  "9dbcb1ba-3bab-11ec-997c-784f43691740": {
    "name": "St John's",
    "lat": 17.116667,
    "lng": -61.85
  },
  "9f26dc88-3bab-11ec-997c-784f43691740": {
    "name": "Ottawa",
    "lat": 45.41670052,
    "lng": -75.7000228
  },
  "a558459c-3bab-11ec-997c-784f43691740": {
    "name": "Caracas",
    "lat": 10.50098332,
    "lng": -66.91703832
  },
  "9e5c55c6-3bab-11ec-997c-784f43691740": {
    "name": "La Paz",
    "lat": -16.49796477,
    "lng": -68.14997495
  },
  "d62bfcf8-5286-11ec-a35d-69ef77974be3": {
    "name": "Montevideo",
    "lat": -34.85803096,
    "lng": -56.17107193
  },
  "9fd52b44-3bab-11ec-997c-784f43691740": {
    "name": "Bogotá",
    "lat": 4.596406724,
    "lng": -74.0833661
  },
  "a02535c6-3bab-11ec-997c-784f43691740": {
    "name": "Quito",
    "lat": -0.2148138413,
    "lng": -78.50005448
  },
  "a0a16c9a-3bab-11ec-997c-784f43691740": {
    "name": "Georgetown",
    "lat": 6.801942064,
    "lng": -58.16701857
  },
  "a3fe872e-3bab-11ec-997c-784f43691740": {
    "name": "Paramaribo",
    "lat": 5.835020208,
    "lng": -55.1670244
  },
  "9f597332-3bab-11ec-997c-784f43691740": {
    "name": "Santiago de Chile",
    "lat": -33.45002367,
    "lng": -70.66703487
  },
  "07415d3e-957f-11ec-8414-8d5e721eb3c7": {
    "name": "Cayenne",
    "lat": 4.932933239,
    "lng": -52.33002325
  },
  "9e87ea10-3bab-11ec-997c-784f43691740": {
    "name": "Brasília",
    "lat": -15.78333597,
    "lng": -47.91605226
  },
  "fce9410c-5286-11ec-a35d-69ef77974be3": {
    "name": "Lima",
    "lat": -12.04800833,
    "lng": -77.05009643
  },
  "a26b4000-3bab-11ec-997c-784f43691740": {
    "name": "Asunción",
    "lat": -25.29639254,
    "lng": -57.64153544
  },
  "a16bc3ea-5286-11ec-a35d-69ef77974be3": {
    "name": "Buenos Aires",
    "lat": -34.603333,
    "lng": -58.381667
  },
  "a5542fc0-3bab-11ec-997c-784f43691740": {
    "name": "Port Vila",
    "lat": -17.73335683,
    "lng": 168.3166653
  },
  "a206abae-3bab-11ec-997c-784f43691740": {
    "name": "Yaren",
    "lat": -0.5477,
    "lng": 166.920867
  },
  "a25bd052-3bab-11ec-997c-784f43691740": {
    "name": "Ngerulmud",
    "lat": 7.500556,
    "lng": 134.624167
  },
  "a2687e42-3bab-11ec-997c-784f43691740": {
    "name": "Port Moresby",
    "lat": -9.464712121,
    "lng": 147.1924773
  },
  "9df91ea2-3bab-11ec-997c-784f43691740": {
    "name": "Canberra",
    "lat": -35.28301582,
    "lng": 149.1290029
  },
  "a4661a2e-3bab-11ec-997c-784f43691740": {
    "name": "Funafuti",
    "lat": -8.516667,
    "lng": 179.2
  },
  "a164da0e-3bab-11ec-997c-784f43691740": {
    "name": "South Tarawa",
    "lat": 1.433333,
    "lng": 173
  },
  "a044ae10-3bab-11ec-997c-784f43691740": {
    "name": "Suva",
    "lat": -18.13300888,
    "lng": 178.4417459
  },
  "a33e5f3a-3bab-11ec-997c-784f43691740": {
    "name": "Apia",
    "lat": -13.833333,
    "lng": -171.75
  },
  "a447ebf8-3bab-11ec-997c-784f43691740": {
    "name": "Nukuʻalofa",
    "lat": -21.133333,
    "lng": -175.2
  },
  "1c8b6084-5274-11ec-85d4-93a20b4d74bc": {
    "name": "Wellington",
    "lat": -41.29999131,
    "lng": 174.7832576
  },
  "a0432ca2-3bab-11ec-997c-784f43691740": {
    "name": "Palikir",
    "lat": 6.917222,
    "lng": 158.158889
  },
  "a3549566-3bab-11ec-997c-784f43691740": {
    "name": "Honiara",
    "lat": -9.437994101,
    "lng": 159.9497617
  },
  "a1a46cdc-3bab-11ec-997c-784f43691740": {
    "name": "Majuro",
    "lat": 7.083333,
    "lng": 171.383333
  },
  "a58566bc-3bab-11ec-997c-784f43691740": {
    "name": "Mount Everest",
    "lat": 27.988056,
    "lng": 86.925278
  },
  "9decd264-3bab-11ec-997c-784f43691740": {
    "name": "Sydney Opera House",
    "lat": -33.85861111,
    "lng": 151.2141667
  },
  "13b1f7d4-a6d4-11ec-9a05-3d350d28acaf": {
    "name": "Taj Mahal",
    "lat": 27.175,
    "lng": 78.04194444
  },
  "a0284ec8-3bab-11ec-997c-784f43691740": {
    "name": "Giza pyramid complex",
    "lat": 29.976111,
    "lng": 31.132778
  },
  "beef3076-52b0-11ec-8c70-7f64b02fdad6": {
    "name": "Statue of Liberty",
    "lat": 40.689167,
    "lng": -74.044444
  },
  "a49d3162-3bab-11ec-997c-784f43691740": {
    "name": "Grand Canyon",
    "lat": 36.3,
    "lng": -112.6
  },
  "9deb4d7c-3bab-11ec-997c-784f43691740": {
    "name": "Uluru",
    "lat": -25.345,
    "lng": 131.036111
  },
  "9f5e6f90-3bab-11ec-997c-784f43691740": {
    "name": "Great Wall of China",
    "lat": 40.68,
    "lng": 117.23
  },
  "a49583fe-3bab-11ec-997c-784f43691740": {
    "name": "Kilimanjaro",
    "lat": -3.07583333,
    "lng": 37.35333333
  },
  "9d68167a-52b0-11ec-8c70-7f64b02fdad6": {
    "name": "Christ the Redeemer",
    "lat": -22.95194444,
    "lng": -43.21055556
  },
  "a1ab987c-3bab-11ec-997c-784f43691740": {
    "name": "Chichen Itza",
    "lat": 20.68305556,
    "lng": -88.56861111
  },
  "a276266e-3bab-11ec-997c-784f43691740": {
    "name": "Machu Picchu",
    "lat": -13.16333333,
    "lng": -72.54555556
  }
}